id,title,price,lat,lng,capacity,rating,amenities
1,Banwait food court,1500,19.033696,73.01675,10,4.5,Area
2,RoadSide A Food Joint,800,19.024384,73.019967,20,4.0,street
3,Courtyard Pavilion,2000,19.043365,73.027075,50,3.8,AC
4,Maharashtra Lunch Home ,3000,19.042841,73.021976,5,4.9,regional
5,Giza Food Corner,1000,19.031753,73.021614,30,3.5,fastfood
